[{"location":{"lon":39.17,"lat":51.67,"name":"Voronezh","region":"Voronezh","country":"Russia","localtime":"2024-01-19 11:22"},"current":{"temp_c":2.4,"humidity":100}},{"location":{"lon":91.43,"lat":53.72,"name":"Abakan","region":"Khakass","country":"Russia","localtime":"2024-01-19 15:22"},"current":{"temp_c":-22,"humidity":84}},{"location":{"lon":37.38,"lat":44.9,"name":"Anapskaya","region":"Krasnodar","country":"Russia","localtime":"2024-01-19 11:22"},"current":{"temp_c":11,"humidity":94}},{"location":{"lon":40.53,"lat":64.57,"name":"Arkhangelsk","region":"Arkhangel'sk","country":"Russia","localtime":"2024-01-19 11:22"},"current":{"temp_c":-11,"humidity":85}},{"location":{"lon":177.48,"lat":64.75,"name":"Anadyr","region":"Chukot","country":"Russia","localtime":"2024-01-19 20:22"},"current":{"temp_c":-7,"humidity":93}},{"location":{"lon":44.85,"lat":43.14,"name":"Ali-Yurt","region":"Chechnya Republic","country":"Russia","localtime":"2024-01-19 11:22"},"current":{"temp_c":4.5,"humidity":53}},{"location":{"lon":48.05,"lat":46.35,"name":"Astrakhan","region":"Astrakhan'","country":"Russia","localtime":"2024-01-19 12:22"},"current":{"temp_c":0,"humidity":100}},{"location":{"lon":83.75,"lat":53.36,"name":"Barnaul","region":"Altaisky krai","country":"Russia","localtime":"2024-01-19 15:22"},"current":{"temp_c":-13,"humidity":56}},{"location":{"lon":36.59,"lat":50.61,"name":"Belgorod","region":"Belgorod","country":"Russia","localtime":"2024-01-19 11:22"},"current":{"temp_c":3,"humidity":100}},{"location":{"lon":127.53,"lat":50.27,"name":"Blagoveshchensk","region":"Amur","country":"Russia","localtime":"2024-01-19 16:22"},"current":{"temp_c":-21,"humidity":36}},{"location":{"lon":132.95,"lat":48.8,"name":"Birobidzhan","region":"Yevrey","country":"Russia","localtime":"2024-01-19 18:22"},"current":{"temp_c":-18.7,"humidity":77}},{"location":{"lon":34.35,"lat":53.24,"name":"Bryansk","region":"Bryansk","country":"Russia","localtime":"2024-01-19 11:22"},"current":{"temp_c":-2.9,"humidity":88}},{"location":{"lon":131.9,"lat":43.13,"name":"Vladivostok","region":"Primor'ye","country":"Russia","localtime":"2024-01-19 18:22"},"current":{"temp_c":-8,"humidity":29}},{"location":{"lon":44.68,"lat":43.04,"name":"Vladikavkaz","region":"North Ossetia","country":"Russia","localtime":"2024-01-19 11:22"},"current":{"temp_c":8,"humidity":43}},{"location":{"lon":40.4,"lat":56.14,"name":"Vladimir","region":"Vladimir","country":"Russia","localtime":"2024-01-19 11:22"},"current":{"temp_c":-2.9,"humidity":93}},{"location":{"lon":64,"lat":67.5,"name":"Vorkuta","region":"Komi","country":"Russia","localtime":"2024-01-19 11:22"},"current":{"temp_c":-15.6,"humidity":93}},{"location":{"lon":39.9,"lat":59.22,"name":"Vologda","region":"Vologda","country":"Russia","localtime":"2024-01-19 11:22"},"current":{"temp_c":-7.3,"humidity":92}},{"location":{"lon":44.59,"lat":48.8,"name":"Volgograd","region":"Volgograd","country":"Russia","localtime":"2024-01-19 11:22"},"current":{"temp_c":1,"humidity":93}},{"location":{"lon":45.7,"lat":43.31,"name":"Grozny","region":"Chechnya Republic","country":"Russia","localtime":"2024-01-19 11:22"},"current":{"temp_c":3,"humidity":72}},{"location":{"lon":85.96,"lat":51.96,"name":"Gorno-Altaysk","region":"Gorno-Altay","country":"Russia","localtime":"2024-01-19 15:22"},"current":{"temp_c":-8.7,"humidity":82}},{"location":{"lon":60.6,"lat":56.85,"name":"Yekaterinburg","region":"Sverdlovsk","country":"Russia","localtime":"2024-01-19 13:22"},"current":{"temp_c":-14,"humidity":92}},{"location":{"lon":53.23,"lat":56.85,"name":"Izhevsk","region":"Udmurt","country":"Russia","localtime":"2024-01-19 12:18"},"current":{"temp_c":-6.9,"humidity":90}},{"location":{"lon":104.33,"lat":52.27,"name":"Irkutsk","region":"Irkutsk","country":"Russia","localtime":"2024-01-19 16:22"},"current":{"temp_c":-18,"humidity":71}},{"location":{"lon":40.99,"lat":56.99,"name":"Ivanovo","region":"Ivanovo","country":"Russia","localtime":"2024-01-19 11:22"},"current":{"temp_c":-3.7,"humidity":92}},{"location":{"lon":47.87,"lat":56.64,"name":"Yoshkar-Ola","region":"Mariy-El","country":"Russia","localtime":"2024-01-19 11:22"},"current":{"temp_c":-1.9,"humidity":96}},{"location":{"lon":36.27,"lat":54.54,"name":"Kaluga","region":"Kaluga","country":"Russia","localtime":"2024-01-19 11:18"},"current":{"temp_c":-4.5,"humidity":90}},{"location":{"lon":20.5,"lat":54.71,"name":"Kaliningrad","region":"Kaliningrad","country":"Russia","localtime":"2024-01-19 10:22"},"current":{"temp_c":-3,"humidity":86}},{"location":{"lon":49.13,"lat":55.75,"name":"Kazan","region":"Tatarstan","country":"Russia","localtime":"2024-01-19 11:22"},"current":{"temp_c":-6,"humidity":93}},{"location":{"lon":86.08,"lat":55.33,"name":"Kemerovo","region":"Kemerovo","country":"Russia","localtime":"2024-01-19 15:22"},"current":{"temp_c":-19,"humidity":84}},{"location":{"lon":40.93,"lat":57.77,"name":"Kostroma","region":"Kostroma","country":"Russia","localtime":"2024-01-19 11:22"},"current":{"temp_c":-5,"humidity":92}},{"location":{"lon":92.79,"lat":56.01,"name":"Krasnoyarsk","region":"Krasnoyarsk","country":"Russia","localtime":"2024-01-19 15:18"},"current":{"temp_c":-18,"humidity":71}},{"location":{"lon":38.98,"lat":45.03,"name":"Krasnodar","region":"Krasnodar","country":"Russia","localtime":"2024-01-19 11:18"},"current":{"temp_c":10,"humidity":71}},{"location":{"lon":49.66,"lat":58.6,"name":"Kirov","region":"Kirov","country":"Russia","localtime":"2024-01-19 11:22"},"current":{"temp_c":-7.6,"humidity":93}},{"location":{"lon":65.33,"lat":55.45,"name":"Kurgan","region":"Kurgan","country":"Russia","localtime":"2024-01-19 13:22"},"current":{"temp_c":-16.7,"humidity":95}},{"location":{"lon":36.19,"lat":51.73,"name":"Kursk","region":"Kursk","country":"Russia","localtime":"2024-01-19 11:22"},"current":{"temp_c":2,"humidity":100}},{"location":{"lon":39.57,"lat":52.62,"name":"Lipetsk","region":"Lipetsk","country":"Russia","localtime":"2024-01-19 11:22"},"current":{"temp_c":1.9,"humidity":100}},{"location":{"lon":37.62,"lat":55.75,"name":"Moscow","region":"Moscow City","country":"Russia","localtime":"2024-01-19 11:22"},"current":{"temp_c":-6,"humidity":93}},{"location":{"lon":47.5,"lat":42.98,"name":"Makhachkala","region":"Dagestan","country":"Russia","localtime":"2024-01-19 11:22"},"current":{"temp_c":8,"humidity":76}},{"location":{"lon":150.8,"lat":59.57,"name":"Magadan","region":"Magadan","country":"Russia","localtime":"2024-01-19 19:22"},"current":{"temp_c":-26,"humidity":83}},{"location":{"lon":40.11,"lat":44.61,"name":"Maykop","region":"Adygeya","country":"Russia","localtime":"2024-01-19 11:22"},"current":{"temp_c":10.7,"humidity":63}},{"location":{"lon":33.08,"lat":68.97,"name":"Murmansk","region":"Murmansk","country":"Russia","localtime":"2024-01-19 11:22"},"current":{"temp_c":-26,"humidity":76}},{"location":{"lon":53.05,"lat":67.65,"name":"Naryan-Mar","region":"Nenets","country":"Russia","localtime":"2024-01-19 11:22"},"current":{"temp_c":-16.6,"humidity":84}},{"location":{"lon":43.62,"lat":43.5,"name":"Nalchik","region":"Kabardin-Balkar","country":"Russia","localtime":"2024-01-19 11:22"},"current":{"temp_c":-1,"humidity":93}},{"location":{"lon":44,"lat":56.33,"name":"Nizhny Novgorod","region":"Novgorod","country":"Russia","localtime":"2024-01-19 11:22"},"current":{"temp_c":1,"humidity":100}},{"location":{"lon":82.93,"lat":55.04,"name":"Novosibirsk","region":"Novosibirsk","country":"Russia","localtime":"2024-01-19 15:22"},"current":{"temp_c":-20,"humidity":77}},{"location":{"lon":73.4,"lat":55,"name":"Omsk","region":"Omsk","country":"Russia","localtime":"2024-01-19 14:18"},"current":{"temp_c":-19,"humidity":70}},{"location":{"lon":55.1,"lat":51.78,"name":"Orenburg","region":"Orenburg","country":"Russia","localtime":"2024-01-19 13:22"},"current":{"temp_c":-7,"humidity":86}},{"location":{"lon":36.08,"lat":52.97,"name":"Orel","region":"Orel","country":"Russia","localtime":"2024-01-19 11:22"},"current":{"temp_c":0,"humidity":98}},{"location":{"lon":34.33,"lat":61.82,"name":"Petrozavodsk","region":"Karelia","country":"Russia","localtime":"2024-01-19 11:22"},"current":{"temp_c":-7.9,"humidity":88}},{"location":{"lon":158.65,"lat":53.02,"name":"Petropavlovsk-Kamchatskiy","region":"Kamchatka","country":"Russia","localtime":"2024-01-19 20:22"},"current":{"temp_c":-5,"humidity":73}},{"location":{"lon":56.25,"lat":58,"name":"Perm","region":"Perm'","country":"Russia","localtime":"2024-01-19 13:22"},"current":{"temp_c":-11,"humidity":78}},{"location":{"lon":45,"lat":53.2,"name":"Penza","region":"Penza","country":"Russia","localtime":"2024-01-19 11:22"},"current":{"temp_c":0,"humidity":96}},{"location":{"lon":28.33,"lat":57.83,"name":"Pskov","region":"Pskov","country":"Russia","localtime":"2024-01-19 11:22"},"current":{"temp_c":-7,"humidity":86}},{"location":{"lon":39.71,"lat":47.24,"name":"Rostov-Na-Donu","region":"Rostov","country":"Russia","localtime":"2024-01-19 11:22"},"current":{"temp_c":5,"humidity":96}},{"location":{"lon":39.74,"lat":54.62,"name":"Ryazan","region":"Ryazan'","country":"Russia","localtime":"2024-01-19 11:22"},"current":{"temp_c":0.6,"humidity":100}},{"location":{"lon":45.18,"lat":54.18,"name":"Saransk","region":"Mordovia","country":"Russia","localtime":"2024-01-19 11:22"},"current":{"temp_c":0.5,"humidity":97}},{"location":{"lon":50.12,"lat":53.18,"name":"Samara","region":"Samara","country":"Russia","localtime":"2024-01-19 12:22"},"current":{"temp_c":-4,"humidity":74}},{"location":{"lon":66.6,"lat":66.53,"name":"Salekhard","region":"Yamal-Nenets","country":"Russia","localtime":"2024-01-19 13:22"},"current":{"temp_c":-24.5,"humidity":100}},{"location":{"lon":32.04,"lat":54.78,"name":"Smolensk","region":"Smolensk","country":"Russia","localtime":"2024-01-19 11:22"},"current":{"temp_c":-7.3,"humidity":90}},{"location":{"lon":41.97,"lat":45.04,"name":"Stavropol","region":"Stavropol'","country":"Russia","localtime":"2024-01-19 11:22"},"current":{"temp_c":0,"humidity":100}},{"location":{"lon":50.81,"lat":61.67,"name":"Syktyvkar","region":"Komi","country":"Russia","localtime":"2024-01-19 11:22"},"current":{"temp_c":-12,"humidity":85}},{"location":{"lon":39.73,"lat":43.6,"name":"Sochi","region":"Krasnodar","country":"Russia","localtime":"2024-01-19 11:22"},"current":{"temp_c":12,"humidity":58}},{"location":{"lon":30.26,"lat":59.89,"name":"Saint Petersburg","region":"Saint Petersburg City","country":"Russia","localtime":"2024-01-19 11:22"},"current":{"temp_c":-4,"humidity":86}},{"location":{"lon":46.03,"lat":51.57,"name":"Saratov","region":"Saratov","country":"Russia","localtime":"2024-01-19 12:22"},"current":{"temp_c":-1.2,"humidity":85}},{"location":{"lon":41.43,"lat":52.73,"name":"Tambov","region":"Tambovskaya oblast","country":"Russia","localtime":"2024-01-19 11:22"},"current":{"temp_c":0.6,"humidity":99}},{"location":{"lon":35.89,"lat":56.86,"name":"Tver","region":"Tver'","country":"Russia","localtime":"2024-01-19 11:22"},"current":{"temp_c":-6.2,"humidity":85}},{"location":{"lon":84.97,"lat":56.5,"name":"Tomsk","region":"Tomsk","country":"Russia","localtime":"2024-01-19 15:22"},"current":{"temp_c":-18.8,"humidity":96}},{"location":{"lon":65.53,"lat":57.15,"name":"Tyumen","region":"Tyumen'","country":"Russia","localtime":"2024-01-19 13:22"},"current":{"temp_c":-18,"humidity":84}},{"location":{"lon":37.61,"lat":54.2,"name":"Tula","region":"Tula","country":"Russia","localtime":"2024-01-19 11:18"},"current":{"temp_c":-2.8,"humidity":92}},{"location":{"lon":48.4,"lat":54.33,"name":"Ulyanovsk","region":"Ul'yanovsk","country":"Russia","localtime":"2024-01-19 12:22"},"current":{"temp_c":-3,"humidity":74}},{"location":{"lon":55.88,"lat":54.56,"name":"Ufa International Airport","region":"Ufa","country":"Russia","localtime":"2024-01-19 13:22"},"current":{"temp_c":-10,"humidity":79}},{"location":{"lon":107.62,"lat":51.83,"name":"Ulan-Ude","region":"Buryat","country":"Russia","localtime":"2024-01-19 16:22"},"current":{"temp_c":-19,"humidity":59}},{"location":{"lon":69,"lat":61,"name":"Khanty-Mansiysk","region":"Khanty-Mansiy","country":"Russia","localtime":"2024-01-19 13:22"},"current":{"temp_c":-18,"humidity":77}},{"location":{"lon":135.1,"lat":48.5,"name":"Khabarovsk","region":"Khabarovsk","country":"Russia","localtime":"2024-01-19 18:22"},"current":{"temp_c":-19,"humidity":59}},{"location":{"lon":61.43,"lat":55.15,"name":"Chelyabinsk","region":"Chelyabinsk","country":"Russia","localtime":"2024-01-19 13:22"},"current":{"temp_c":-19,"humidity":84}},{"location":{"lon":47.25,"lat":56.13,"name":"Cheboksary","region":"Chuvashia","country":"Russia","localtime":"2024-01-19 11:22"},"current":{"temp_c":-4,"humidity":93}},{"location":{"lon":113.55,"lat":52.03,"name":"Chita","region":"Chita","country":"Russia","localtime":"2024-01-19 17:22"},"current":{"temp_c":-20,"humidity":59}},{"location":{"lon":42.06,"lat":44.22,"name":"Cherkessk","region":"Karachay-Cherkess","country":"Russia","localtime":"2024-01-19 11:22"},"current":{"temp_c":5.8,"humidity":70}},{"location":{"lon":44.26,"lat":46.31,"name":"Elista","region":"Kalmyk","country":"Russia","localtime":"2024-01-19 11:22"},"current":{"temp_c":2,"humidity":93}},{"location":{"lon":129.73,"lat":62.03,"name":"Yakutsk","region":"Sakha","country":"Russia","localtime":"2024-01-19 17:22"},"current":{"temp_c":-43,"humidity":64}},{"location":{"lon":39.87,"lat":57.62,"name":"Yaroslavl","region":"Yaroslavl'","country":"Russia","localtime":"2024-01-19 11:22"},"current":{"temp_c":-5.6,"humidity":91}}]